FRAME,Date,UTC,IntSec,GPSWkSec,Longitude,Latitude,Easting,Northing,H-Ell,Roll,Pitch,Heading,ToffSet,GWSDiff,IntDiff,TrgMiss
20200622_110245_00000000,6/22/2020,03:00:39.800,96.40375,97257.8,121.2162021161,25.0189566784,271820.124,2767894.653,95.304,2.8121633442,-0.1947462509,-51.1677621726,97161.39625,0,0,0
20200622_110245_00000001,6/22/2020,03:00:40.786,97.390375,97258.786,121.2161872958,25.0189667660,271818.627,2767895.768,95.273,2.8526560212,0.2300225056,-54.5265929310,97161.395625,0.986,0.98663,-0.00063
20200622_110245_00000002,6/22/2020,03:00:41.518,98.12225,97259.518,121.2161719128,25.0189763748,271817.073,2767896.830,95.252,2.7613410299,0.4889596561,-56.4193499059,97161.39575,0.732,0.73187,0.00013
20200622_110245_00000003,6/22/2020,03:00:42.125,98.7295,97260.125,121.2161561848,25.0189855171,271815.484,2767897.840,95.239,2.5344833960,0.5758939907,-58.0304723198,97161.3955,0.607,0.60725,-0.00025
20200622_110245_00000004,6/22/2020,03:00:42.662,99.26575,97260.662,121.2161400780,25.0189943603,271813.857,2767898.817,95.232,2.1857787313,0.5746453066,-59.2010580832,97161.39625,0.537,0.53625,0.00075
20200622_110245_00000005,6/22/2020,03:00:43.147,99.75175,97261.147,121.2161238535,25.0190029562,271812.218,2767899.767,95.221,2.0770527427,0.6406432556,-60.2557818704,97161.39525,0.485,0.486,-0.001
20200622_110245_00000006,6/22/2020,03:00:43.598,100.202125,97261.598,121.2161072629,25.0190113608,271810.542,2767900.695,95.217,1.7563708419,0.3009099487,-60.9295560032,97161.395875,0.451,0.45037,0.00063
20200622_110245_00000007,6/22/2020,03:00:44.021,100.625625,97262.021,121.2160908344,25.0190197482,271808.882,2767901.621,95.201,2.0426030602,-0.0602253161,-61.1527876035,97161.395375,0.423,0.4235,-0.0005
20200622_110245_00000008,6/22/2020,03:00:44.430,101.0345,97262.43,121.2160742861,25.0190278245,271807.211,2767902.513,95.180,1.1515859593,0.0359223750,-60.8303331231,97161.3955,0.409,0.40887,0.00012
20200622_110245_00000009,6/22/2020,03:00:44.836,101.440375,97262.836,121.2160576448,25.0190364247,271805.530,2767903.463,95.155,1.1582999752,0.0473213154,-60.2624318051,97161.395625,0.406,0.40588,0.00013
20200622_110245_00000010,6/22/2020,03:00:45.227,101.8315,97263.227,121.2160413124,25.0190448921,271803.880,2767904.398,95.135,0.7005630594,0.1267894043,-59.5308233789,97161.3955,0.391,0.39113,-0.00012
20200622_110245_00000011,6/22/2020,03:00:45.615,102.219625,97263.615,121.2160250378,25.0190538090,271802.236,2767905.383,95.113,0.7968329745,0.2003619028,-58.6858138383,97161.395375,0.388,0.38812,-0.00012
20200622_110245_00000012,6/22/2020,03:00:45.995,102.59875,97263.995,121.2160089880,25.0190629035,271800.614,2767906.388,95.092,0.8729432624,0.3217753735,-57.7781228549,97161.39625,0.38,0.37913,0.00087
20200622_110245_00000013,6/22/2020,03:00:46.368,102.972125,97264.368,121.2159931098,25.0190722825,271799.010,2767907.424,95.081,1.0525763084,0.1799781823,-56.7587885534,97161.395875,0.373,0.37338,-0.00037
20200622_110245_00000014,6/22/2020,03:00:46.738,103.342375,97264.738,121.2159773767,25.0190819361,271797.421,2767908.491,95.063,1.1522985390,0.3720505268,-55.5455117735,97161.395625,0.37,0.37025,-0.00025
20200622_110245_00000015,6/22/2020,03:00:47.106,103.709875,97265.106,121.2159618261,25.0190919439,271795.849,2767909.597,95.049,1.2249596226,0.4604850292,-54.2649232983,97161.396125,0.368,0.3675,0.0005
20200622_110245_00000016,6/22/2020,03:00:47.467,104.07125,97265.467,121.2159466549,25.0191021416,271794.316,2767910.724,95.042,1.2024645470,0.3139787919,-52.9688604515,97161.39575,0.361,0.36138,-0.00037
20200622_110245_00000017,6/22/2020,03:00:47.832,104.435625,97265.832,121.2159314949,25.0191128033,271792.784,2767911.903,95.028,1.1473764365,0.2746697134,-51.7090759322,97161.396375,0.365,0.36437,0.00062
20200622_110245_00000018,6/22/2020,03:00:48.190,104.794125,97266.19,121.2159167590,25.0191236083,271791.295,2767913.097,95.014,1.1093055214,0.2444209093,-50.7138416956,97161.395875,0.358,0.3585,-0.0005
20200622_110245_00000019,6/22/2020,03:00:48.546,105.149625,97266.546,121.2159022098,25.0191346370,271789.825,2767914.316,94.999,1.0920137734,0.2004029037,-49.9052425290,97161.396375,0.356,0.3555,0.0005
20200622_110245_00000020,6/22/2020,03:00:48.898,105.50225,97266.898,121.2158878792,25.0191457622,271788.377,2767915.546,94.984,1.0659252137,0.1193256493,-49.2313563785,97161.39575,0.352,0.35263,-0.00063
20200622_110245_00000021,6/22/2020,03:00:49.251,105.85475,97267.251,121.2158735944,25.0191571398,271786.933,2767916.804,94.966,1.0924061159,0.1789517409,-48.5399245644,97161.39625,0.353,0.3525,0.0005
20200622_110245_00000022,6/22/2020,03:00:49.600,106.204375,97267.6,121.2158595485,25.0191686364,271785.513,2767918.075,94.948,1.1675714851,0.3335289185,-47.8688036873,97161.395625,0.349,0.34963,-0.00062
20200622_110245_00000023,6/22/2020,03:00:49.947,106.551,97267.947,121.2158456191,25.0191802456,271784.106,2767919.359,94.935,1.2058814061,0.4423896077,-47.3926294912,97161.396,0.347,0.34663,0.00037
20200622_110245_00000024,6/22/2020,03:00:50.291,106.894625,97268.291,121.2158317955,25.0191918919,271782.708,2767920.647,94.926,1.0616456724,0.3258974672,-47.0284966700,97161.396375,0.344,0.34363,0.00037
20200622_110245_00000025,6/22/2020,03:00:50.634,107.238375,97268.634,121.2158180334,25.0192036210,271781.317,2767921.944,94.916,1.0157143243,0.2310458396,-46.7487985507,97161.395625,0.343,0.34375,-0.00075
20200622_110245_00000026,6/22/2020,03:00:50.978,107.582,97268.978,121.2158042357,25.0192153989,271779.923,2767923.246,94.902,0.6883962110,0.3460042282,-46.4722103840,97161.396,0.344,0.34362,0.00037
20200622_110245_00000027,6/22/2020,03:00:51.319,107.92275,97269.319,121.2157906634,25.0192271688,271778.551,2767924.547,94.890,0.7081771266,0.4315874429,-46.3505917317,97161.39625,0.341,0.34075,0.00025
20200622_110245_00000028,6/22/2020,03:00:51.662,108.266375,97269.662,121.2157770326,25.0192390914,271777.173,2767925.866,94.887,0.8387139917,0.0994348528,-46.3800792066,97161.395625,0.343,0.34363,-0.00063
20200622_110245_00000029,6/22/2020,03:00:52.006,108.61,97270.006,121.2157634556,25.0192508619,271775.801,2767927.167,94.864,0.8244175817,0.5082121331,-46.5128117482,97161.396,0.344,0.34363,0.00037
20200622_110245_00000030,6/22/2020,03:00:52.350,108.953625,97270.35,121.2157498398,25.0192625577,271774.425,2767928.461,94.858,0.7360370517,0.5944031579,-46.8149686790,97161.396375,0.344,0.34363,0.00038
20200622_110245_00000031,6/22/2020,03:00:52.699,109.30325,97270.699,121.2157360750,25.0192742998,271773.033,2767929.759,94.856,0.8101977740,0.6395452377,-47.0330854533,97161.39575,0.349,0.34963,-0.00063
20200622_110245_00000032,6/22/2020,03:00:53.049,109.652875,97271.049,121.2157223191,25.0192859600,271771.643,2767931.048,94.855,0.8473066341,0.5774183276,-47.2286353340,97161.396125,0.35,0.34962,0.00038
20200622_110245_00000033,6/22/2020,03:00:53.402,110.0055,97271.402,121.2157084899,25.0192976112,271770.245,2767932.337,94.853,0.8911418046,0.4463504129,-47.4328472231,97161.3965,0.353,0.35263,0.00038
20200622_110245_00000034,6/22/2020,03:00:53.757,110.361,97271.757,121.2156945982,25.0193092464,271768.841,2767933.623,94.847,1.0077083217,0.1713891297,-47.6321158060,97161.396,0.355,0.3555,-0.0005
20200622_110245_00000035,6/22/2020,03:00:54.113,110.7165,97272.113,121.2156807079,25.0193208043,271767.437,2767934.901,94.832,1.1048830145,0.1440401281,-47.8195099035,97161.3965,0.356,0.3555,0.0005
20200622_110245_00000036,6/22/2020,03:00:54.468,111.072,97272.468,121.2156668879,25.0193322188,271766.040,2767936.163,94.815,1.1664006302,0.3163612032,-48.0180621198,97161.396,0.355,0.3555,-0.0005
20200622_110245_00000037,6/22/2020,03:00:54.827,111.4305,97272.827,121.2156528307,25.0193435795,271764.620,2767937.419,94.803,0.7632329940,0.4654573893,-48.1634747205,97161.3965,0.359,0.3585,0.0005
20200622_110245_00000038,6/22/2020,03:00:55.188,111.792,97273.188,121.2156387775,25.0193550080,271763.199,2767938.683,94.798,0.6679322442,0.3637384150,-48.1867356612,97161.396,0.361,0.3615,-0.0005
20200622_110245_00000039,6/22/2020,03:00:55.556,112.159375,97273.556,121.2156246700,25.0193664316,271761.774,2767939.946,94.791,0.4410395509,0.2741470219,-48.1673058799,97161.396625,0.368,0.36737,0.00063
20200622_110245_00000040,6/22/2020,03:00:55.932,112.5355,97273.932,121.2156106631,25.0193778595,271760.358,2767941.209,94.781,0.4268003378,0.2445798114,-48.1262710082,97161.3965,0.376,0.37613,-0.00012
20200622_110245_00000041,6/22/2020,03:00:56.317,112.920625,97274.317,121.2155967374,25.0193892092,271758.950,2767942.464,94.769,0.3213383569,0.3476272298,-48.0854778803,97161.396375,0.385,0.38513,-0.00013
20200622_110245_00000042,6/22/2020,03:00:56.717,113.320625,97274.717,121.2155827199,25.0194007123,271757.534,2767943.736,94.759,0.3999341293,0.2182682120,-48.0295648863,97161.396375,0.4,0.4,0
20200622_110245_00000043,6/22/2020,03:00:57.126,113.7295,97275.126,121.2155687572,25.0194121644,271756.122,2767945.002,94.752,0.3337559756,0.0932746457,-47.7807578266,97161.3965,0.409,0.40887,0.00012
20200622_110245_00000044,6/22/2020,03:00:57.547,114.15025,97275.547,121.2155549418,25.0194238320,271754.726,2767946.292,94.730,0.8182753632,0.2503239630,-47.5065358164,97161.39675,0.421,0.42075,0.00025
20200622_110245_00000045,6/22/2020,03:00:57.976,114.579875,97275.976,121.2155411850,25.0194354652,271753.336,2767947.579,94.717,1.0566549718,0.1854760648,-47.2609804599,97161.396125,0.429,0.42963,-0.00063
20200622_110245_00000046,6/22/2020,03:00:58.418,115.02125,97276.418,121.2155274389,25.0194471509,271751.946,2767948.871,94.705,1.2097826115,0.2360669762,-47.0538965706,97161.39675,0.442,0.44137,0.00063
20200622_110245_00000047,6/22/2020,03:00:58.880,115.483375,97276.88,121.2155136629,25.0194589458,271750.554,2767950.175,94.693,1.3393901158,0.1622281651,-46.9002741576,97161.396625,0.462,0.46213,-0.00013
20200622_110245_00000048,6/22/2020,03:00:59.363,115.966375,97277.363,121.2154999924,25.0194706457,271749.172,2767951.469,94.682,1.3416160733,0.1486537453,-46.8110113399,97161.396625,0.483,0.483,0
20200622_110245_00000049,6/22/2020,03:00:59.875,116.478875,97277.875,121.2154864754,25.0194822579,271747.806,2767952.753,94.667,1.4793316636,0.5884747698,-46.8525848175,97161.396125,0.512,0.5125,-0.0005
20200622_110245_00000050,6/22/2020,03:01:00.429,117.032875,97278.429,121.2154728434,25.0194939571,271746.428,2767954.046,94.668,1.6180536216,0.4014574900,-47.0100392100,97161.396125,0.554,0.554,0
20200622_110245_00000051,6/22/2020,03:01:01.043,117.646125,97279.043,121.2154590460,25.0195056451,271745.033,2767955.339,94.665,1.5800576833,0.1997729731,-47.2521614106,97161.396875,0.614,0.61325,0.00075
20200622_110245_00000052,6/22/2020,03:01:01.733,118.3365,97279.733,121.2154452592,25.0195170954,271743.640,2767956.605,94.652,1.2151432888,0.1416816856,-47.4899877983,97161.3965,0.69,0.69038,-0.00038
20200622_110245_00000053,6/22/2020,03:01:02.551,119.154125,97280.551,121.2154314186,25.0195285428,271742.241,2767957.871,94.640,0.9941381327,0.2108466671,-47.7904301153,97161.396875,0.818,0.81762,0.00038
20200622_110245_00000054,6/22/2020,03:01:03.526,120.128875,97281.526,121.2154174369,25.0195398427,271740.828,2767959.120,94.632,0.3612183774,0.4102317097,-47.8638385831,97161.397125,0.975,0.97475,0.00025
20200622_110245_00000055,6/22/2020,03:01:04.737,121.340625,97282.737,121.2154035797,25.0195512357,271739.428,2767960.380,94.625,0.2828375360,0.4219009399,-47.9433162161,97161.396375,1.211,1.21175,-0.00075
20200622_110245_00000056,6/22/2020,03:01:06.853,123.455875,97284.853,121.2153896934,25.0195625187,271738.024,2767961.627,94.622,-0.0333054378,0.5418589071,-47.9876947512,97161.397125,2.116,2.11525,0.00075
20200622_110245_00000057,6/22/2020,03:01:29.577,146.179625,97307.577,121.2153755420,25.0195740856,271736.594,2767962.906,94.615,-0.1516812273,1.0961423291,-48.0352028664,97161.397375,22.724,22.72375,0.00025
20200622_110245_00000058,6/22/2020,03:01:30.543,147.1455,97308.543,121.2153613224,25.0195859435,271735.157,2767964.217,94.623,-0.2176039896,0.7483917064,-46.8731658622,97161.3975,0.966,0.96588,0.00013
20200622_110245_00000059,6/22/2020,03:01:31.222,147.823875,97309.222,121.2153475233,25.0195981976,271733.762,2767965.572,94.623,0.0203798268,0.7326966136,-45.2002102494,97161.398125,0.679,0.67837,0.00062
20200622_110245_00000060,6/22/2020,03:01:31.767,148.369,97309.767,121.2153342621,25.0196106726,271732.421,2767966.952,94.608,0.2477925015,1.0120903588,-43.5849183877,97161.398,0.545,0.54513,-0.00012
20200622_110245_00000061,6/22/2020,03:01:32.241,148.843,97310.241,121.2153212320,25.0196234095,271731.104,2767968.361,94.606,-0.0722003723,0.7482483391,-42.0096836310,97161.398,0.474,0.474,0
20200622_110245_00000062,6/22/2020,03:01:32.679,149.2815,97310.679,121.2153086381,25.0196367044,271729.831,2767969.831,94.607,0.2976441129,0.4359413417,-40.3846487515,97161.3975,0.438,0.4385,-0.0005
20200622_110245_00000063,6/22/2020,03:01:33.097,149.699125,97311.097,121.2152967411,25.0196497162,271728.628,2767971.271,94.566,0.1285899802,2.0442390127,-38.8351287466,97161.397875,0.418,0.41763,0.00037
20200622_110245_00000064,6/22/2020,03:01:33.509,150.111,97311.509,121.2152848418,25.0196634940,271727.424,2767972.795,94.629,-0.1362755254,0.6400579087,-37.2165758693,97161.398,0.412,0.41187,0.00013
20200622_110245_00000065,6/22/2020,03:01:33.912,150.514,97311.912,121.2152735726,25.0196775393,271726.284,2767974.349,94.615,0.0874910225,1.0952607162,-35.6349966783,97161.398,0.403,0.403,0
20200622_110245_00000066,6/22/2020,03:01:34.294,150.896125,97312.294,121.2152626259,25.0196918217,271725.177,2767975.929,94.622,0.0172270955,0.9704035103,-34.1035961905,97161.397875,0.382,0.38213,-0.00013
20200622_110245_00000067,6/22/2020,03:01:34.658,151.260625,97312.658,121.2152521839,25.0197062610,271724.121,2767977.526,94.628,0.0254903667,1.0039969398,-32.7463432372,97161.397375,0.364,0.3645,-0.0005
20200622_110245_00000068,6/22/2020,03:01:35.014,151.616,97313.014,121.2152420260,25.0197209793,271723.093,2767979.155,94.628,-0.0421468912,0.9902458183,-31.4156945509,97161.398,0.356,0.35538,0.00062
20200622_110245_00000069,6/22/2020,03:01:35.361,151.962625,97313.361,121.2152322502,25.0197359501,271722.104,2767980.812,94.637,0.0075388382,0.7751588333,-30.1787015977,97161.398375,0.347,0.34662,0.00038
20200622_110245_00000070,6/22/2020,03:01:35.698,152.300375,97313.698,121.2152228906,25.0197510069,271721.156,2767982.478,94.633,0.1001082625,0.7901548547,-29.1401071589,97161.397625,0.337,0.33775,-0.00075
20200622_110245_00000071,6/22/2020,03:01:36.024,152.626375,97314.024,121.2152138385,25.0197659526,271720.240,2767984.132,94.631,-0.0914049407,1.1510426428,-28.3414509602,97161.397625,0.326,0.326,0
20200622_110245_00000072,6/22/2020,03:01:36.347,152.94925,97314.347,121.2152048537,25.0197813435,271719.331,2767985.835,94.638,-0.1427850833,0.8389931761,-27.6355480083,97161.39775,0.323,0.32288,0.00012
20200622_110245_00000073,6/22/2020,03:01:36.661,153.263375,97314.661,121.2151960794,25.0197966809,271718.442,2767987.533,94.644,-0.3077188190,0.7320594002,-26.9361733812,97161.397625,0.314,0.31412,-0.00013
20200622_110245_00000074,6/22/2020,03:01:36.969,153.571375,97314.969,121.2151876708,25.0198121426,271717.591,2767989.244,94.634,-0.1133194321,1.0101788899,-26.2152875579,97161.397625,0.308,0.308,0
20200622_110245_00000075,6/22/2020,03:01:37.272,153.873625,97315.272,121.2151794747,25.0198278514,271716.761,2767990.982,94.641,0.3972744413,0.4369376435,-25.5530862336,97161.398375,0.303,0.30225,0.00075
20200622_110245_00000076,6/22/2020,03:01:37.571,154.172875,97315.571,121.2151714690,25.0198433942,271715.950,2767992.703,94.633,0.5312251481,0.5116533765,-25.0343870959,97161.398125,0.299,0.29925,-0.00025
20200622_110245_00000077,6/22/2020,03:01:37.867,154.469125,97315.867,121.2151636403,25.0198588509,271715.158,2767994.413,94.621,0.5089172238,0.7152540972,-24.4891449445,97161.397875,0.296,0.29625,-0.00025
20200622_110245_00000078,6/22/2020,03:01:38.166,154.768375,97316.166,121.2151559070,25.0198746193,271714.374,2767996.159,94.625,0.6536410315,0.6281073518,-23.9078616640,97161.397625,0.299,0.29925,-0.00025
20200622_110245_00000079,6/22/2020,03:01:38.463,155.064625,97316.463,121.2151483509,25.0198903804,271713.609,2767997.903,94.618,0.6974377293,0.6910409675,-23.3618104433,97161.398375,0.297,0.29625,0.00075
20200622_110245_00000080,6/22/2020,03:01:38.759,155.360875,97316.759,121.2151409160,25.0199063323,271712.856,2767999.669,94.615,0.7335762352,0.5292713063,-22.8137481911,97161.398125,0.296,0.29625,-0.00025
20200622_110245_00000081,6/22/2020,03:01:39.052,155.654125,97317.052,121.2151336161,25.0199223671,271712.116,2768001.444,94.607,0.7562708487,0.3343789414,-22.2636411683,97161.397875,0.293,0.29325,-0.00025
20200622_110245_00000082,6/22/2020,03:01:39.340,155.9415,97317.34,121.2151265227,25.0199383983,271711.398,2768003.218,94.599,0.7326616921,0.1280762568,-21.6733892806,97161.3985,0.288,0.28737,0.00063
20200622_110245_00000083,6/22/2020,03:01:39.624,156.226,97317.624,121.2151196870,25.0199544316,271710.705,2768004.993,94.575,0.8722379961,0.4158132508,-21.0639728280,97161.398,0.284,0.2845,-0.0005
20200622_110245_00000084,6/22/2020,03:01:39.903,156.5045,97317.903,121.2151129394,25.0199704433,271710.021,2768006.766,94.562,0.5755274688,0.4176834635,-20.4890033719,97161.3985,0.279,0.2785,0.0005
20200622_110245_00000085,6/22/2020,03:01:40.181,156.783,97318.181,121.2151064571,25.0199866066,271709.364,2768008.555,94.550,0.7060576259,0.5244313765,-19.8567870519,97161.398,0.278,0.2785,-0.0005
20200622_110245_00000086,6/22/2020,03:01:40.457,157.0585,97318.457,121.2151001502,25.0200028049,271708.725,2768010.348,94.543,0.7600560370,0.3869539425,-19.2115134186,97161.3985,0.276,0.2755,0.0005
20200622_110245_00000087,6/22/2020,03:01:40.735,157.337,97318.735,121.2150940025,25.0200193030,271708.101,2768012.174,94.537,0.9192616607,-0.0842078366,-18.5919850910,97161.398,0.278,0.2785,-0.0005
20200622_110245_00000088,6/22/2020,03:01:41.011,157.6125,97319.011,121.2150881422,25.0200357056,271707.507,2768013.990,94.512,1.1361031034,-0.0369080965,-17.8980753425,97161.3985,0.276,0.2755,0.0005
20200622_110245_00000089,6/22/2020,03:01:41.286,157.888,97319.286,121.2150823998,25.0200521076,271706.925,2768015.806,94.482,0.9280712993,0.0036051968,-17.2215235477,97161.398,0.275,0.2755,-0.0005
20200622_110245_00000090,6/22/2020,03:01:41.562,158.1635,97319.562,121.2150769141,25.0200686896,271706.368,2768017.642,94.466,1.0487214250,-0.1800225048,-16.4856583271,97161.3985,0.276,0.2755,0.0005
20200622_110245_00000091,6/22/2020,03:01:41.837,158.439125,97319.837,121.2150717458,25.0200852158,271705.843,2768019.472,94.437,1.2226305423,0.0554105981,-15.7317956290,97161.397875,0.275,0.27562,-0.00063
20200622_110245_00000092,6/22/2020,03:01:42.110,158.711625,97320.11,121.2150666980,25.0201016870,271705.331,2768021.295,94.415,0.9846267365,0.0506316410,-15.0756657809,97161.398375,0.273,0.2725,0.0005
20200622_110245_00000093,6/22/2020,03:01:42.385,158.98725,97320.385,121.2150618572,25.0201183597,271704.840,2768023.141,94.397,0.8344110815,0.2047134628,-14.3610305724,97161.39775,0.275,0.27562,-0.00063
20200622_110245_00000094,6/22/2020,03:01:42.658,159.25975,97320.658,121.2150572022,25.0201350424,271704.367,2768024.988,94.375,0.5994643035,0.4353127716,-13.6429881789,97161.39825,0.273,0.2725,0.0005
20200622_110245_00000095,6/22/2020,03:01:42.928,159.529375,97320.928,121.2150528823,25.0201518291,271703.928,2768026.847,94.368,0.6923446820,0.1282723224,-12.9267358128,97161.398625,0.27,0.26962,0.00038
20200622_110245_00000096,6/22/2020,03:01:43.197,159.798875,97321.197,121.2150487808,25.0201686594,271703.511,2768028.710,94.346,0.7321987813,0.2834830250,-12.1747873593,97161.398125,0.269,0.2695,-0.0005
20200622_110245_00000097,6/22/2020,03:01:43.464,160.0655,97321.464,121.2150449294,25.0201855681,271703.119,2768030.582,94.328,0.8896648787,0.3406909641,-11.4124230134,97161.3985,0.267,0.26662,0.00038
20200622_110245_00000098,6/22/2020,03:01:43.728,160.32925,97321.728,121.2150412822,25.0202024588,271702.748,2768032.453,94.318,0.7414608722,0.4023434562,-10.5903307410,97161.39875,0.264,0.26375,0.00025
20200622_110245_00000099,6/22/2020,03:01:43.991,160.593,97321.991,121.2150379314,25.0202194411,271702.407,2768034.333,94.307,0.6977406848,0.4103959521,-9.5728984712,97161.398,0.263,0.26375,-0.00075
20200622_110245_00000100,6/22/2020,03:01:44.255,160.856625,97322.255,121.2150349599,25.0202366831,271702.104,2768036.243,94.297,0.8335545510,0.2835285255,-8.3354729890,97161.398375,0.264,0.26363,0.00038
20200622_110245_00000101,6/22/2020,03:01:44.516,161.117375,97322.516,121.2150324260,25.0202538587,271701.845,2768038.145,94.282,0.9457309060,0.3103033143,-7.0701086832,97161.398625,0.261,0.26075,0.00025
20200622_110245_00000102,6/22/2020,03:01:44.773,161.375125,97322.773,121.2150303809,25.0202708976,271701.636,2768040.031,94.266,1.1597467576,0.3495545842,-5.7385099360,97161.397875,0.257,0.25775,-0.00075
20200622_110245_00000103,6/22/2020,03:01:45.031,161.633,97323.031,121.2150287099,25.0202880980,271701.464,2768041.936,94.253,1.2109636876,0.4607848753,-4.4085189972,97161.398,0.258,0.25788,0.00013
20200622_110245_00000104,6/22/2020,03:01:45.289,161.890625,97323.289,121.2150275047,25.0203053902,271701.340,2768043.852,94.243,1.4220370279,0.4293636180,-3.0728094486,97161.398375,0.258,0.25762,0.00038
20200622_110245_00000105,6/22/2020,03:01:45.547,162.148375,97323.547,121.2150267674,25.0203227221,271701.262,2768045.771,94.236,1.6594291049,0.3509992902,-1.7782908245,97161.398625,0.258,0.25775,0.00025
20200622_110245_00000106,6/22/2020,03:01:45.804,162.406125,97323.804,121.2150264726,25.0203400089,271701.229,2768047.686,94.218,1.9914784799,0.2638771414,-0.6416531038,97161.397875,0.257,0.25775,-0.00075
20200622_110245_00000107,6/22/2020,03:01:46.059,162.661,97324.059,121.2150264511,25.0203571825,271701.224,2768049.588,94.207,2.0534414520,0.0333492208,0.2450007467,97161.398,0.255,0.25487,0.00012
20200622_110245_00000108,6/22/2020,03:01:46.317,162.91875,97324.317,121.2150266412,25.0203744491,271701.240,2768051.501,94.185,1.9510991825,0.3908993361,0.9707927493,97161.39825,0.258,0.25775,0.00025
20200622_110245_00000109,6/22/2020,03:01:46.575,163.1765,97324.575,121.2150270104,25.0203917565,271701.275,2768053.418,94.174,1.7616166473,0.3344032936,1.4585434821,97161.3985,0.258,0.25775,0.00025
20200622_110245_00000110,6/22/2020,03:01:46.830,163.431375,97324.83,121.2150275232,25.0204088621,271701.323,2768055.312,94.165,1.6468797009,0.1038311974,1.8167403446,97161.398625,0.255,0.25487,0.00013
20200622_110245_00000111,6/22/2020,03:01:47.087,163.689125,97325.087,121.2150281590,25.0204260084,271701.385,2768057.212,94.146,1.5553931091,0.1902138373,2.0905047590,97161.397875,0.257,0.25775,-0.00075
20200622_110245_00000112,6/22/2020,03:01:47.345,163.94675,97325.345,121.2150288723,25.0204431897,271701.454,2768059.115,94.131,1.4819782259,0.2329810260,2.2941436879,97161.39825,0.258,0.25763,0.00038
20200622_110245_00000113,6/22/2020,03:01:47.603,164.2045,97325.603,121.2150296389,25.0204603462,271701.528,2768061.015,94.115,1.4191102717,0.2309225187,2.2873754266,97161.3985,0.258,0.25775,0.00025
20200622_110245_00000114,6/22/2020,03:01:47.861,164.462375,97325.861,121.2150303565,25.0204774774,271701.597,2768062.913,94.101,1.3050853809,0.1460206349,2.1954017334,97161.398625,0.258,0.25788,0.00013
20200622_110245_00000115,6/22/2020,03:01:48.121,164.723,97326.121,121.2150310876,25.0204946929,271701.668,2768064.820,94.085,1.3086292647,0.1350240580,2.1317677965,97161.398,0.26,0.26063,-0.00063
20200622_110245_00000116,6/22/2020,03:01:48.379,164.98075,97326.379,121.2150318011,25.0205117272,271701.737,2768066.707,94.068,1.3514894256,0.2010628369,2.0707279553,97161.39825,0.258,0.25775,0.00025
20200622_110245_00000117,6/22/2020,03:01:48.640,165.2415,97326.64,121.2150324949,25.0205289200,271701.804,2768068.611,94.052,1.3715065919,0.2648055270,1.9982985824,97161.3985,0.261,0.26075,0.00025
20200622_110245_00000118,6/22/2020,03:01:48.901,165.50225,97326.901,121.2150331954,25.0205460575,271701.872,2768070.509,94.037,1.4989531666,0.3750501023,1.9398337515,97161.39875,0.261,0.26075,0.00025
20200622_110245_00000119,6/22/2020,03:01:49.161,165.763,97327.161,121.2150338656,25.0205631025,271701.936,2768072.397,94.027,1.5865612254,0.4438228066,1.8717634943,97161.398,0.26,0.26075,-0.00075
20200622_110245_00000120,6/22/2020,03:01:49.422,166.023625,97327.422,121.2150344981,25.0205801994,271701.997,2768074.291,94.020,1.6304967360,0.4795631523,1.8071453353,97161.398375,0.261,0.26063,0.00038
20200622_110245_00000121,6/22/2020,03:01:49.683,166.284375,97327.683,121.2150351189,25.0205972625,271702.057,2768076.181,94.013,1.6675997835,0.4743296697,1.7918337862,97161.398625,0.261,0.26075,0.00025
20200622_110245_00000122,6/22/2020,03:01:49.946,166.548,97327.946,121.2150357070,25.0206144568,271702.113,2768078.086,94.007,1.5471455336,0.2918446839,1.9186050844,97161.398,0.263,0.26362,-0.00063
20200622_110245_00000123,6/22/2020,03:01:50.210,166.81175,97328.21,121.2150363918,25.0206316449,271702.179,2768079.990,93.995,1.5733682289,0.3593497987,2.0754428613,97161.39825,0.264,0.26375,0.00025
20200622_110245_00000124,6/22/2020,03:01:50.474,167.075375,97328.474,121.2150371235,25.0206488555,271702.250,2768081.896,93.983,1.5915542689,0.3311321568,2.2197424263,97161.398625,0.264,0.26363,0.00037
20200622_110245_00000125,6/22/2020,03:01:50.735,167.336125,97328.735,121.2150378318,25.0206659322,271702.319,2768083.788,93.970,1.3735303656,0.2739218516,2.3345351850,97161.398875,0.261,0.26075,0.00025
20200622_110245_00000126,6/22/2020,03:01:50.998,167.599875,97328.998,121.2150386186,25.0206831507,271702.395,2768085.695,93.958,1.2734395395,0.4784670562,2.5246384667,97161.398125,0.263,0.26375,-0.00075
20200622_110245_00000127,6/22/2020,03:01:51.259,167.860375,97329.259,121.2150395443,25.0207002933,271702.485,2768087.594,93.947,1.3905245451,0.5250779000,2.8565807930,97161.398625,0.261,0.2605,0.0005
20200622_110245_00000128,6/22/2020,03:01:51.520,168.121125,97329.52,121.2150405127,25.0207175544,271702.580,2768089.506,93.940,1.2476941071,0.1043566357,3.2705169213,97161.398875,0.261,0.26075,0.00025
20200622_110245_00000129,6/22/2020,03:01:51.777,168.378875,97329.777,121.2150416047,25.0207346164,271702.687,2768091.396,93.927,1.0449842008,0.0956520235,3.7455375934,97161.398125,0.257,0.25775,-0.00075
20200622_110245_00000130,6/22/2020,03:01:52.035,168.636625,97330.035,121.2150428796,25.0207518419,271702.813,2768093.304,93.903,0.8950494041,0.1982613005,4.2061654306,97161.398375,0.258,0.25775,0.00025
20200622_110245_00000131,6/22/2020,03:01:52.290,168.8915,97330.29,121.2150443003,25.0207690379,271702.953,2768095.209,93.886,0.7090734814,0.2407431765,4.7428076384,97161.3985,0.255,0.25487,0.00012
20200622_110245_00000132,6/22/2020,03:01:52.542,169.14325,97330.542,121.2150459412,25.0207862177,271703.116,2768097.112,93.868,0.6925444435,0.2134514837,5.2986597092,97161.39875,0.252,0.25175,0.00025
20200622_110245_00000133,6/22/2020,03:01:52.791,169.392125,97330.791,121.2150478106,25.0208033413,271703.302,2768099.009,93.851,0.8057426620,0.2000492962,5.8620290474,97161.398875,0.249,0.24887,0.00012
20200622_110245_00000134,6/22/2020,03:01:53.037,169.638125,97331.037,121.2150498326,25.0208204031,271703.503,2768100.899,93.831,0.8465175348,0.2888387531,6.3568726869,97161.398875,0.246,0.246,0
20200622_110245_00000135,6/22/2020,03:01:53.283,169.883875,97331.283,121.2150520494,25.0208376416,271703.723,2768102.809,93.816,0.9758186645,0.2113984010,6.6837449500,97161.399125,0.246,0.24575,0.00025
20200622_110245_00000136,6/22/2020,03:01:53.523,170.123875,97331.523,121.2150543297,25.0208545930,271703.950,2768104.687,93.799,1.1154155131,0.3032982458,6.9858639611,97161.399125,0.24,0.24,0
20200622_110245_00000137,6/22/2020,03:01:53.763,170.363875,97331.763,121.2150567139,25.0208716653,271704.188,2768106.578,93.783,1.2123869146,0.5298788989,7.2756052839,97161.399125,0.24,0.24,0
20200622_110245_00000138,6/22/2020,03:01:54.000,170.600875,97332,121.2150592097,25.0208886356,271704.437,2768108.458,93.771,1.3894684898,0.7914380616,7.5690761413,97161.399125,0.237,0.237,0
20200622_110245_00000139,6/22/2020,03:01:54.237,170.838,97332.237,121.2150618257,25.0209058193,271704.698,2768110.362,93.775,1.5507968008,0.5578001382,7.8434406063,97161.399,0.237,0.23712,-0.00013
20200622_110245_00000140,6/22/2020,03:01:54.468,171.069125,97332.468,121.2150644716,25.0209226867,271704.962,2768112.231,93.771,1.6635299204,0.3553527016,8.1260090097,97161.398875,0.231,0.23113,-0.00013
20200622_110245_00000141,6/22/2020,03:01:54.699,171.30025,97332.699,121.2150672055,25.0209395915,271705.235,2768114.104,93.760,1.7645721199,0.5634593111,8.4170443084,97161.39875,0.231,0.23112,-0.00013
20200622_110245_00000142,6/22/2020,03:01:54.930,171.53125,97332.93,121.2150700569,25.0209566117,271705.520,2768115.989,93.749,1.8577892300,0.8298500177,8.7272071218,97161.39875,0.231,0.231,0
20200622_110245_00000143,6/22/2020,03:01:55.158,171.7595,97333.158,121.2150729887,25.0209735843,271705.813,2768117.870,93.750,1.8828478134,0.6697520748,9.0136713141,97161.3985,0.228,0.22825,-0.00025
20200622_110245_00000144,6/22/2020,03:01:55.386,171.987375,97333.386,121.2150761037,25.0209906923,271706.124,2768119.765,93.748,2.1119105660,0.5187033477,9.3125189985,97161.398625,0.228,0.22787,0.00013
20200622_110245_00000145,6/22/2020,03:01:55.608,172.209625,97333.608,121.2150792615,25.0210074772,271706.440,2768121.625,93.739,2.3889761709,0.6962345561,9.6291638464,97161.398375,0.222,0.22225,-0.00025
20200622_110245_00000146,6/22/2020,03:01:55.831,172.431875,97333.831,121.2150825832,25.0210245100,271706.772,2768123.512,93.732,2.6267383604,0.8039166900,9.9193180873,97161.399125,0.223,0.22225,0.00075
20200622_110245_00000147,6/22/2020,03:01:56.050,172.651125,97334.05,121.2150859345,25.0210414524,271707.107,2768125.389,93.729,2.7547976503,0.7072750103,10.1377360157,97161.398875,0.219,0.21925,-0.00025
20200622_110245_00000148,6/22/2020,03:01:56.266,172.867375,97334.266,121.2150892616,25.0210583343,271707.440,2768127.259,93.728,2.5817227433,0.6189735350,10.3247320896,97161.398625,0.216,0.21625,-0.00025
20200622_110245_00000149,6/22/2020,03:01:56.479,173.08075,97334.479,121.2150926158,25.0210752247,271707.776,2768129.131,93.723,2.3510112557,0.1428177123,10.4385148755,97161.39825,0.213,0.21337,-0.00037
20200622_110245_00000150,6/22/2020,03:01:56.693,173.294125,97334.693,121.2150960485,25.0210922776,271708.119,2768131.020,93.705,2.1874772921,0.1892293460,10.5738679651,97161.398875,0.214,0.21338,0.00062
20200622_110245_00000151,6/22/2020,03:01:56.903,173.504375,97334.903,121.2150994992,25.0211091457,271708.464,2768132.889,93.680,2.0466191971,0.3885982118,10.7553040955,97161.398625,0.21,0.21025,-0.00025
20200622_110245_00000152,6/22/2020,03:01:57.110,173.71175,97335.11,121.2151030079,25.0211259306,271708.816,2768134.749,93.666,1.9549003646,0.4275982746,10.9414428697,97161.39825,0.207,0.20737,-0.00038
20200622_110245_00000153,6/22/2020,03:01:57.318,173.91925,97335.318,121.2151066444,25.0211428964,271709.180,2768136.629,93.652,1.9449906590,0.4575908939,11.1147523386,97161.39875,0.208,0.2075,0.0005
20200622_110245_00000154,6/22/2020,03:01:57.522,174.1235,97335.522,121.2151103002,25.0211596069,271709.546,2768138.480,93.640,2.0096814015,0.4655041625,11.2872099482,97161.3985,0.204,0.20425,-0.00025
20200622_110245_00000155,6/22/2020,03:01:57.727,174.328,97335.727,121.2151140196,25.0211764683,271709.918,2768140.348,93.630,2.0079545365,0.3774851607,11.4513557016,97161.399,0.205,0.2045,0.0005
20200622_110245_00000156,6/22/2020,03:01:57.931,174.5325,97335.931,121.2151178032,25.0211932491,271710.297,2768142.208,93.620,2.0587079380,0.4136591437,11.6270457564,97161.3985,0.204,0.2045,-0.0005
20200622_110245_00000157,6/22/2020,03:01:58.136,174.736875,97336.136,121.2151216423,25.0212101229,271710.681,2768144.077,93.608,2.0211005826,0.3938357744,11.8123964697,97161.399125,0.205,0.20437,0.00063
20200622_110245_00000158,6/22/2020,03:01:58.340,174.941375,97336.34,121.2151255100,25.0212269056,271711.069,2768145.937,93.598,1.9535895473,0.3031660614,11.9728585261,97161.398625,0.204,0.2045,-0.0005
20200622_110245_00000159,6/22/2020,03:01:58.544,175.14575,97336.544,121.2151294221,25.0212436629,271711.461,2768147.793,93.584,1.8918088766,0.2632259223,12.1559086200,97161.39825,0.204,0.20437,-0.00038
20200622_110245_00000160,6/22/2020,03:01:58.749,175.35025,97336.749,121.2151334707,25.0212605072,271711.866,2768149.660,93.569,2.0279044586,0.1118987180,12.3530529977,97161.39875,0.205,0.2045,0.0005
20200622_110245_00000161,6/22/2020,03:01:58.953,175.554625,97336.953,121.2151375180,25.0212772030,271712.272,2768151.510,93.551,2.0072164324,0.2876131239,12.5374787426,97161.398375,0.204,0.20437,-0.00038
20200622_110245_00000162,6/22/2020,03:01:59.158,175.759125,97337.158,121.2151416722,25.0212939856,271712.688,2768153.369,93.536,2.0752490720,0.4457166601,12.7204712786,97161.398875,0.205,0.2045,0.0005
20200622_110245_00000163,6/22/2020,03:01:59.362,175.9635,97337.362,121.2151458857,25.0213106589,271713.110,2768155.217,93.531,2.2019729369,0.6953766434,12.9067791699,97161.3985,0.204,0.20437,-0.00038
20200622_110245_00000164,6/22/2020,03:01:59.567,176.167875,97337.567,121.2151501376,25.0213274850,271713.537,2768157.081,93.529,2.1069191874,0.4971726878,13.0655240412,97161.399125,0.205,0.20437,0.00063
20200622_110245_00000165,6/22/2020,03:01:59.771,176.37225,97337.771,121.2151544213,25.0213442291,271713.966,2768158.936,93.528,2.0446596356,0.2403255407,13.2935787040,97161.39875,0.204,0.20437,-0.00038
20200622_110245_00000166,6/22/2020,03:01:59.975,176.57675,97337.975,121.2151587845,25.0213608909,271714.403,2768160.783,93.512,2.0378308278,0.3777130239,13.5720387583,97161.39825,0.204,0.2045,-0.0005
20200622_110245_00000167,6/22/2020,03:02:00.180,176.781125,97338.18,121.2151632666,25.0213776804,271714.853,2768162.643,93.497,1.9528202328,0.2597564618,13.8136654378,97161.398875,0.205,0.20437,0.00062
20200622_110245_00000168,6/22/2020,03:02:00.381,176.982625,97338.381,121.2151677607,25.0213941467,271715.303,2768164.468,93.487,1.9346981362,0.2314724019,14.1399493799,97161.398375,0.201,0.2015,-0.0005
20200622_110245_00000169,6/22/2020,03:02:00.586,177.187,97338.586,121.2151724474,25.0214109035,271715.773,2768166.324,93.469,1.9089143409,0.3986524944,14.5197975726,97161.399,0.205,0.20437,0.00063
20200622_110245_00000170,6/22/2020,03:02:00.790,177.3915,97338.79,121.2151772629,25.0214275961,271716.256,2768168.174,93.458,1.9572334944,0.3501948279,14.8808289351,97161.3985,0.204,0.2045,-0.0005
20200622_110245_00000171,6/22/2020,03:02:00.992,177.593,97338.992,121.2151821594,25.0214441258,271716.748,2768170.006,93.447,1.9781614414,0.3150593787,15.2138054813,97161.399,0.202,0.2015,0.0005
20200622_110245_00000172,6/22/2020,03:02:01.193,177.794375,97339.193,121.2151871416,25.0214605905,271717.248,2768171.830,93.434,2.0262191163,0.2397833891,15.4876044360,97161.398625,0.201,0.20138,-0.00037
20200622_110245_00000173,6/22/2020,03:02:01.398,177.998875,97339.398,121.2151923150,25.0214774295,271717.767,2768173.696,93.420,2.0421479823,0.0376584915,15.7375028114,97161.399125,0.205,0.2045,0.0005
20200622_110245_00000174,6/22/2020,03:02:01.596,178.19725,97339.596,121.2151973795,25.0214936261,271718.275,2768175.491,93.399,2.0769607362,0.3295152121,16.0063558896,97161.39875,0.198,0.19837,-0.00037
20200622_110245_00000175,6/22/2020,03:02:01.798,178.39875,97339.798,121.2152026347,25.0215101780,271718.803,2768177.325,93.381,2.0480532904,0.5266621682,16.2700317598,97161.39925,0.202,0.2015,0.0005
20200622_110245_00000176,6/22/2020,03:02:01.999,178.600125,97339.999,121.2152079880,25.0215266982,271719.340,2768179.156,93.376,2.0843487860,0.4377124337,16.5304321959,97161.398875,0.201,0.20137,-0.00037
20200622_110245_00000177,6/22/2020,03:02:02.201,178.801625,97340.201,121.2152134536,25.0215433094,271719.889,2768180.996,93.368,2.0855013059,0.3406582899,16.7779953154,97161.399375,0.202,0.2015,0.0005
20200622_110245_00000178,6/22/2020,03:02:02.399,179.000125,97340.399,121.2152189032,25.0215595986,271720.436,2768182.802,93.357,2.1494123334,0.2480202481,17.0414354259,97161.398875,0.198,0.1985,-0.0005
20200622_110245_00000179,6/22/2020,03:02:02.598,179.198625,97340.598,121.2152244671,25.0215759902,271720.994,2768184.618,93.341,2.1308667179,0.1562972673,17.2969647312,97161.399375,0.199,0.1985,0.0005
20200622_110245_00000180,6/22/2020,03:02:02.796,179.39725,97340.796,121.2152301069,25.0215922701,271721.561,2768186.422,93.323,2.2573747483,0.3749063356,17.5608837637,97161.39875,0.198,0.19863,-0.00062
20200622_110245_00000181,6/22/2020,03:02:02.995,179.59575,97340.995,121.2152358424,25.0216087115,271722.137,2768188.244,93.306,2.1286499135,0.2814751563,17.8066882477,97161.39925,0.199,0.1985,0.0005
20200622_110245_00000182,6/22/2020,03:02:03.193,179.794125,97341.193,121.2152416112,25.0216250965,271722.716,2768190.060,93.292,1.9517383758,0.2265887547,18.0557427778,97161.398875,0.198,0.19837,-0.00037
20200622_110245_00000183,6/22/2020,03:02:03.392,179.99275,97341.392,121.2152475144,25.0216415780,271723.309,2768191.886,93.276,1.8523737374,0.2058445724,18.3450719847,97161.39925,0.199,0.19862,0.00038
20200622_110245_00000184,6/22/2020,03:02:03.587,180.188125,97341.587,121.2152534196,25.0216577287,271723.902,2768193.676,93.257,1.7772639802,0.2681185355,18.5905437886,97161.398875,0.195,0.19538,-0.00038
20200622_110245_00000185,6/22/2020,03:02:03.783,180.383625,97341.783,121.2152594401,25.0216739735,271724.507,2768195.477,93.241,1.7039709094,0.3329897689,18.8632661503,97161.399375,0.196,0.1955,0.0005
20200622_110245_00000186,6/22/2020,03:02:03.978,180.57925,97341.978,121.2152655209,25.0216901677,271725.118,2768197.271,93.227,1.6126692182,0.2932537427,19.1140159527,97161.39875,0.195,0.19563,-0.00062
20200622_110245_00000187,6/22/2020,03:02:04.174,180.77475,97342.174,121.2152717515,25.0217064251,271725.743,2768199.073,93.212,1.6596066584,0.3668096174,19.3839258824,97161.39925,0.196,0.1955,0.0005
20200622_110245_00000188,6/22/2020,03:02:04.369,180.97025,97342.369,121.2152780469,25.0217226121,271726.376,2768200.867,93.199,1.6259335310,0.3661730660,19.6454247424,97161.39875,0.195,0.1955,-0.0005
20200622_110245_00000189,6/22/2020,03:02:04.565,181.165875,97342.565,121.2152844812,25.0217388666,271727.022,2768202.668,93.190,1.7086750350,0.3170477357,19.9251206316,97161.399125,0.196,0.19563,0.00037
20200622_110245_00000190,6/22/2020,03:02:04.760,181.361375,97342.76,121.2152909717,25.0217549765,271727.675,2768204.454,93.178,1.8294817895,0.1792245248,20.1817269369,97161.398625,0.195,0.1955,-0.0005
20200622_110245_00000191,6/22/2020,03:02:04.956,181.557,97342.956,121.2152975187,25.0217710725,271728.333,2768206.238,93.165,1.8282622647,0.0646124746,20.4335924487,97161.399,0.196,0.19562,0.00038
20200622_110245_00000192,6/22/2020,03:02:05.154,181.7555,97343.154,121.2153041496,25.0217871890,271728.999,2768208.024,93.147,1.8152281502,0.2750970473,20.7071842130,97161.3985,0.198,0.1985,-0.0005
20200622_110245_00000193,6/22/2020,03:02:05.350,181.951,97343.35,121.2153108356,25.0218030967,271729.671,2768209.787,93.134,1.9815972867,0.3289910721,20.9630809118,97161.399,0.196,0.1955,0.0005
20200622_110245_00000194,6/22/2020,03:02:05.548,182.1495,97343.548,121.2153176647,25.0218191121,271730.357,2768211.562,93.123,2.0763316919,0.4000782511,21.1805406570,97161.3985,0.198,0.1985,-0.0005
20200622_110245_00000195,6/22/2020,03:02:05.747,182.347875,97343.747,121.2153245439,25.0218352311,271731.049,2768213.348,93.114,1.9701902319,0.1784348691,21.3871459789,97161.399125,0.199,0.19837,0.00063
20200622_110245_00000196,6/22/2020,03:02:05.945,182.5465,97343.945,121.2153313735,25.0218511729,271731.735,2768215.115,93.099,1.7685613596,0.3405160761,21.6563411252,97161.3985,0.198,0.19863,-0.00062
20200622_110245_00000197,6/22/2020,03:02:06.144,182.745,97344.144,121.2153383537,25.0218671459,271732.437,2768216.886,93.084,1.6894401599,0.4132197321,21.8968691737,97161.399,0.199,0.1985,0.0005
20200622_110245_00000198,6/22/2020,03:02:06.342,182.9435,97344.342,121.2153453766,25.0218830254,271733.143,2768218.645,93.077,1.5826393631,0.1895187121,22.1152500102,97161.3985,0.198,0.1985,-0.0005
20200622_110245_00000199,6/22/2020,03:02:06.541,183.142,97344.541,121.2153524913,25.0218989133,271733.858,2768220.406,93.064,1.5712196780,0.1393160977,22.3555937987,97161.399,0.199,0.1985,0.0005
20200622_110245_00000200,6/22/2020,03:02:06.742,183.343375,97344.742,121.2153597898,25.0219149086,271734.592,2768222.179,93.046,1.6788344625,0.0366297727,22.6186403807,97161.398625,0.201,0.20138,-0.00037
20200622_110245_00000201,6/22/2020,03:02:06.941,183.542,97344.941,121.2153670866,25.0219306470,271735.325,2768223.924,93.025,1.8456979163,0.1759426240,22.8692058369,97161.399,0.199,0.19862,0.00038
20200622_110245_00000202,6/22/2020,03:02:07.142,183.743375,97345.142,121.2153745551,25.0219464779,271736.076,2768225.678,93.007,2.1243759082,0.3666256513,23.1397676416,97161.398625,0.201,0.20137,-0.00037
20200622_110245_00000203,6/22/2020,03:02:07.341,183.942,97345.341,121.2153820823,25.0219621102,271736.833,2768227.411,92.996,2.5887001997,0.3375820317,23.4103382320,97161.399,0.199,0.19863,0.00037
20200622_110245_00000204,6/22/2020,03:02:07.542,184.143375,97345.542,121.2153896401,25.0219778975,271737.593,2768229.161,92.987,2.5037977447,0.2912258198,23.6409533855,97161.398625,0.201,0.20137,-0.00037
20200622_110245_00000205,6/22/2020,03:02:07.741,184.34175,97345.741,121.2153971692,25.0219935196,271738.350,2768230.892,92.978,2.3487625980,0.0636505819,23.8776534767,97161.39925,0.199,0.19837,0.00062
20200622_110245_00000206,6/22/2020,03:02:07.942,184.54325,97345.942,121.2154048008,25.0220091447,271739.118,2768232.624,92.957,2.3371251008,0.4095702595,24.1741659634,97161.39875,0.201,0.2015,-0.0005
20200622_110245_00000207,6/22/2020,03:02:08.144,184.74475,97346.144,121.2154125895,25.0220247924,271739.901,2768234.359,92.943,2.4157855694,0.6651055727,24.4323070461,97161.39925,0.202,0.2015,0.0005
20200622_110245_00000208,6/22/2020,03:02:08.345,184.946125,97346.345,121.2154203975,25.0220403778,271740.686,2768236.086,92.945,2.3325647611,0.5142236456,24.6832609674,97161.398875,0.201,0.20137,-0.00037
20200622_110245_00000209,6/22/2020,03:02:08.550,185.1505,97346.55,121.2154284010,25.0220561673,271741.491,2768237.836,92.941,2.2694944553,0.5964798294,24.9487733172,97161.3995,0.205,0.20437,0.00063
20200622_110245_00000210,6/22/2020,03:02:08.751,185.352,97346.751,121.2154362884,25.0220715946,271742.285,2768239.547,92.936,2.1033812533,0.6366333848,25.1952785093,97161.399,0.201,0.2015,-0.0005
20200622_110245_00000211,6/22/2020,03:02:08.956,185.5565,97346.956,121.2154443841,25.0220872975,271743.099,2768241.287,92.936,1.8839852505,0.4906257975,25.4396678185,97161.3995,0.205,0.2045,0.0005
20200622_110245_00000212,6/22/2020,03:02:09.157,185.757875,97347.157,121.2154523507,25.0221026676,271743.900,2768242.991,92.932,1.5421598744,0.2725003760,25.6809981160,97161.399125,0.201,0.20138,-0.00037
20200622_110245_00000213,6/22/2020,03:02:09.362,185.962375,97347.362,121.2154605841,25.0221182514,271744.728,2768244.718,92.921,1.4463757683,0.1443393901,25.9596220197,97161.399625,0.205,0.2045,0.0005
20200622_110245_00000214,6/22/2020,03:02:09.566,186.166875,97347.566,121.2154688719,25.0221336887,271745.562,2768246.429,92.903,1.4439116750,0.0805379616,26.2442189935,97161.399125,0.204,0.2045,-0.0005
20200622_110245_00000215,6/22/2020,03:02:09.770,186.371125,97347.77,121.2154772226,25.0221490530,271746.402,2768248.133,92.884,1.3793740953,0.1698073837,26.5079930744,97161.398875,0.204,0.20425,-0.00025
20200622_110245_00000216,6/22/2020,03:02:09.975,186.5755,97347.975,121.2154856493,25.0221644536,271747.250,2768249.840,92.866,1.1896050450,0.3080317798,26.7597193909,97161.3995,0.205,0.20437,0.00063
20200622_110245_00000217,6/22/2020,03:02:10.179,186.78,97348.179,121.2154940827,25.0221797256,271748.098,2768251.533,92.852,0.9967745593,0.4982481830,27.0302509895,97161.399,0.204,0.2045,-0.0005
20200622_110245_00000218,6/22/2020,03:02:10.384,186.984375,97348.384,121.2155026475,25.0221950618,271748.960,2768253.233,92.847,0.7991101124,0.3497403677,27.2849453470,97161.399625,0.205,0.20437,0.00063
20200622_110245_00000219,6/22/2020,03:02:10.588,187.188875,97348.588,121.2155112860,25.0222102668,271749.829,2768254.918,92.839,0.7983712836,0.1364679466,27.5370788839,97161.399125,0.204,0.2045,-0.0005
20200622_110245_00000220,6/22/2020,03:02:10.796,187.39625,97348.796,121.2155201574,25.0222256540,271750.722,2768256.624,92.821,0.8772461285,0.2242412981,27.8173821674,97161.39975,0.208,0.20738,0.00062
20200622_110245_00000221,6/22/2020,03:02:11.000,187.600625,97349,121.2155289396,25.0222406958,271751.605,2768258.291,92.805,0.9437932689,0.3119182237,28.0849300749,97161.399375,0.204,0.20437,-0.00038
20200622_110245_00000222,6/22/2020,03:02:11.207,187.808,97349.207,121.2155380141,25.0222559068,271752.519,2768259.978,92.793,1.3196976007,0.0732817266,28.3828006072,97161.399,0.207,0.20737,-0.00038
20200622_110245_00000223,6/22/2020,03:02:11.412,188.0125,97349.412,121.2155470240,25.0222708474,271753.425,2768261.634,92.773,1.5842691985,0.2978293303,28.6509400722,97161.3995,0.205,0.2045,0.0005
20200622_110245_00000224,6/22/2020,03:02:11.619,188.219875,97349.619,121.2155563167,25.0222859253,271754.360,2768263.306,92.760,2.1342343366,-0.0223132572,28.9572619248,97161.399125,0.207,0.20738,-0.00037
20200622_110245_00000225,6/22/2020,03:02:11.824,188.424125,97349.824,121.2155654248,25.0223007731,271755.277,2768264.952,92.746,2.1779514126,0.2648392603,29.2414666744,97161.399875,0.205,0.20425,0.00075
20200622_110245_00000226,6/22/2020,03:02:12.031,188.631625,97350.031,121.2155746354,25.0223156780,271756.204,2768266.604,92.727,2.1228647104,0.6922006524,29.5451035598,97161.399375,0.207,0.2075,-0.0005
20200622_110245_00000227,6/22/2020,03:02:12.238,188.839,97350.238,121.2155839200,25.0223305902,271757.138,2768268.257,92.727,2.0078383714,0.6158851237,29.7968862419,97161.399,0.207,0.20737,-0.00038
20200622_110245_00000228,6/22/2020,03:02:12.446,189.046375,97350.446,121.2155933372,25.0223455301,271758.086,2768269.914,92.725,1.9427659163,0.3484650508,30.0543026552,97161.399625,0.208,0.20738,0.00062
20200622_110245_00000229,6/22/2020,03:02:12.656,189.25675,97350.656,121.2156029115,25.0223604953,271759.050,2768271.573,92.718,1.9793423207,0.2713371644,30.3000110191,97161.39925,0.21,0.21037,-0.00037
20200622_110245_00000230,6/22/2020,03:02:12.864,189.46425,97350.864,121.2156124249,25.0223752473,271760.007,2768273.208,92.703,1.9822403971,0.3055079657,30.5248920809,97161.39975,0.208,0.2075,0.0005
20200622_110245_00000231,6/22/2020,03:02:13.074,189.674625,97351.074,121.2156221133,25.0223900788,271760.982,2768274.852,92.691,2.0996596202,0.2484501160,30.7468276450,97161.399375,0.21,0.21037,-0.00038
20200622_110245_00000232,6/22/2020,03:02:13.281,189.882,97351.281,121.2156317132,25.0224046531,271761.949,2768276.468,92.677,2.2080739665,0.1615489921,30.9522736075,97161.399,0.207,0.20738,-0.00037
20200622_110245_00000233,6/22/2020,03:02:13.492,190.092375,97351.492,121.2156415339,25.0224194516,271762.937,2768278.109,92.661,2.2719690125,0.1452126121,31.1033883242,97161.399625,0.211,0.21037,0.00062
20200622_110245_00000234,6/22/2020,03:02:13.702,190.30275,97351.702,121.2156513000,25.0224341549,271763.920,2768279.739,92.643,2.2167532695,0.1950409838,31.2026106344,97161.39925,0.21,0.21037,-0.00037
20200622_110245_00000235,6/22/2020,03:02:13.912,190.513,97351.912,121.2156610735,25.0224488286,271764.904,2768281.366,92.626,2.1700887476,0.2228899433,31.3297672518,97161.399,0.21,0.21025,-0.00025
20200622_110245_00000236,6/22/2020,03:02:14.120,190.720375,97352.12,121.2156707903,25.0224633049,271765.882,2768282.971,92.611,2.1738344004,0.3264872083,31.4586203571,97161.399625,0.208,0.20737,0.00062
20200622_110245_00000237,6/22/2020,03:02:14.330,190.93075,97352.33,121.2156806406,25.0224778984,271766.874,2768284.589,92.599,2.2141547098,0.3268235661,31.5820716080,97161.39925,0.21,0.21037,-0.00037
20200622_110245_00000238,6/22/2020,03:02:14.544,191.144125,97352.544,121.2156907019,25.0224927420,271767.886,2768286.235,92.589,2.2155322323,0.2331568104,31.7054336422,97161.399875,0.214,0.21338,0.00062
20200622_110245_00000239,6/22/2020,03:02:14.754,191.3545,97352.754,121.2157006140,25.0225072676,271768.884,2768287.845,92.575,2.2633480306,0.1355807903,31.8269455856,97161.3995,0.21,0.21037,-0.00037
20200622_110245_00000240,6/22/2020,03:02:14.964,191.56475,97352.964,121.2157105697,25.0225217673,271769.886,2768289.453,92.558,2.3664313914,-0.0418991802,31.9572197950,97161.39925,0.21,0.21025,-0.00025
20200622_110245_00000241,6/22/2020,03:02:15.175,191.775125,97353.175,121.2157205101,25.0225362624,271770.887,2768291.060,92.537,2.2194323800,0.2509488465,32.0807480220,97161.399875,0.211,0.21037,0.00062
20200622_110245_00000242,6/22/2020,03:02:15.388,191.9885,97353.388,121.2157306033,25.0225509035,271771.903,2768292.683,92.516,2.1873665582,0.1901384933,32.3320083311,97161.3995,0.213,0.21337,-0.00037
20200622_110245_00000243,6/22/2020,03:02:15.601,192.201875,97353.601,121.2157408668,25.0225655241,271772.936,2768294.304,92.509,2.2938963743,-0.3620326477,32.6062477437,97161.399125,0.213,0.21338,-0.00038
20200622_110245_00000244,6/22/2020,03:02:15.812,192.412,97353.812,121.2157510648,25.0225797999,271773.963,2768295.887,92.476,2.5809115802,0.0790759417,32.8572451644,97161.4,0.211,0.21013,0.00088
20200622_110245_00000245,6/22/2020,03:02:16.022,192.622375,97354.022,121.2157612283,25.0225940140,271774.986,2768297.463,92.452,2.6247378044,0.3206542542,33.1164053097,97161.399625,0.21,0.21037,-0.00038
20200622_110245_00000246,6/22/2020,03:02:16.235,192.835625,97354.235,121.2157716130,25.0226084249,271776.032,2768299.061,92.442,2.5928887635,0.2286294603,33.3744227315,97161.399375,0.213,0.21325,-0.00025
20200622_110245_00000247,6/22/2020,03:02:16.449,193.049,97354.449,121.2157820860,25.0226228055,271777.086,2768300.656,92.429,2.6094523108,0.3372319018,33.6183959993,97161.4,0.214,0.21338,0.00062
20200622_110245_00000248,6/22/2020,03:02:16.662,193.262375,97354.662,121.2157925628,25.0226370647,271778.141,2768302.237,92.416,2.6146826541,0.4052250148,33.8660775161,97161.399625,0.213,0.21337,-0.00037
20200622_110245_00000249,6/22/2020,03:02:16.875,193.475625,97354.875,121.2158030939,25.0226512653,271779.201,2768303.811,92.409,2.6059987231,0.4024867103,34.1183512064,97161.399375,0.213,0.21325,-0.00025
20200622_110245_00000250,6/22/2020,03:02:17.089,193.689,97355.089,121.2158137315,25.0226654683,271780.272,2768305.386,92.400,2.5969413280,0.3199444859,34.3666362134,97161.4,0.214,0.21337,0.00063
20200622_110245_00000251,6/22/2020,03:02:17.302,193.902375,97355.302,121.2158243203,25.0226796425,271781.338,2768306.958,92.391,2.1872778929,-0.0770804018,34.5740584641,97161.399625,0.213,0.21338,-0.00038
20200622_110245_00000252,6/22/2020,03:02:17.518,194.118625,97355.518,121.2158351481,25.0226938109,271782.429,2768308.529,92.373,2.3249170453,0.1280689776,34.9035827390,97161.399375,0.216,0.21625,-0.00025
20200622_110245_00000253,6/22/2020,03:02:17.731,194.331875,97355.731,121.2158458770,25.0227077039,271783.509,2768310.069,92.348,2.3577008817,0.4055200438,35.2357869044,97161.399125,0.213,0.21325,-0.00025
20200622_110245_00000254,6/22/2020,03:02:17.945,194.545125,97355.945,121.2158568184,25.0227216680,271784.611,2768311.618,92.341,2.3836269553,0.1874225919,35.5329198413,97161.399875,0.214,0.21325,0.00075
20200622_110245_00000255,6/22/2020,03:02:18.161,194.761375,97356.161,121.2158678765,25.0227357957,271785.724,2768313.185,92.325,2.0591990937,0.0937290948,35.8907177090,97161.399625,0.216,0.21625,-0.00025
20200622_110245_00000256,6/22/2020,03:02:18.374,194.97475,97356.374,121.2158789179,25.0227496717,271786.836,2768314.723,92.305,1.9216821857,0.1230761892,36.2737995142,97161.39925,0.213,0.21338,-0.00037
20200622_110245_00000257,6/22/2020,03:02:18.588,195.188,97356.588,121.2158902013,25.0227635369,271787.973,2768316.261,92.286,2.0202893353,0.1858661843,36.6740788808,97161.4,0.214,0.21325,0.00075
20200622_110245_00000258,6/22/2020,03:02:18.798,195.398375,97356.798,121.2159013873,25.0227770856,271789.099,2768317.763,92.267,2.1007243055,0.3863495644,37.0366161335,97161.399625,0.21,0.21037,-0.00038
20200622_110245_00000259,6/22/2020,03:02:19.011,195.61175,97357.011,121.2159128639,25.0227907841,271790.255,2768319.282,92.255,2.2156316415,0.5677950870,37.3982653202,97161.39925,0.213,0.21338,-0.00037
20200622_110245_00000260,6/22/2020,03:02:19.222,195.822125,97357.222,121.2159243464,25.0228043398,271791.411,2768320.786,92.249,2.2926507779,0.6208301669,37.7233333908,97161.399875,0.211,0.21037,0.00062
20200622_110245_00000261,6/22/2020,03:02:19.435,196.035375,97357.435,121.2159360362,25.0228180342,271792.589,2768322.304,92.248,2.2425610102,0.4734652910,38.0201921031,97161.399625,0.213,0.21325,-0.00025
20200622_110245_00000262,6/22/2020,03:02:19.645,196.24575,97357.645,121.2159477113,25.0228314333,271793.765,2768323.790,92.242,2.4870240615,0.4192894610,38.3099718690,97161.39925,0.21,0.21037,-0.00037
20200622_110245_00000263,6/22/2020,03:02:19.856,196.456125,97357.856,121.2159594208,25.0228449073,271794.944,2768325.285,92.229,2.3843533478,0.6089249896,38.5456861322,97161.399875,0.211,0.21037,0.00062
20200622_110245_00000264,6/22/2020,03:02:20.066,196.666375,97358.066,121.2159712361,25.0228584031,271796.134,2768326.781,92.229,2.2063030614,0.1501772809,38.7907776540,97161.399625,0.21,0.21025,-0.00025
20200622_110245_00000265,6/22/2020,03:02:20.273,196.87375,97358.273,121.2159829796,25.0228716322,271797.317,2768328.249,92.217,2.2334420843,-0.0229054451,39.0210588840,97161.39925,0.207,0.20738,-0.00038
20200622_110245_00000266,6/22/2020,03:02:20.484,197.084125,97358.484,121.2159950244,25.0228850585,271798.530,2768329.738,92.187,2.3063630316,0.1631251725,39.2519977663,97161.399875,0.211,0.21037,0.00062
20200622_110245_00000267,6/22/2020,03:02:20.691,197.291625,97358.691,121.2160069826,25.0228982731,271799.734,2768331.203,92.169,2.3759951227,0.0954902194,39.4331849580,97161.399375,0.207,0.2075,-0.0005
20200622_110245_00000268,6/22/2020,03:02:20.899,197.498875,97358.899,121.2160190248,25.0229115730,271800.947,2768332.678,92.151,2.3059184626,0.1823885829,39.6046005242,97161.400125,0.208,0.20725,0.00075
20200622_110245_00000269,6/22/2020,03:02:21.106,197.706375,97359.106,121.2160310688,25.0229248198,271802.161,2768334.148,92.131,2.2246454457,0.3644483909,39.7788168756,97161.399625,0.207,0.2075,-0.0005
20200622_110245_00000270,6/22/2020,03:02:21.310,197.91075,97359.31,121.2160430864,25.0229378760,271803.371,2768335.596,92.119,2.2878634259,0.3044982814,39.9606037271,97161.39925,0.204,0.20437,-0.00038
20200622_110245_00000271,6/22/2020,03:02:21.515,198.11525,97359.515,121.2160552294,25.0229510202,271804.594,2768337.053,92.107,2.2748749593,0.1627542880,40.1304983070,97161.39975,0.205,0.2045,0.0005
20200622_110245_00000272,6/22/2020,03:02:21.719,198.319625,97359.719,121.2160673668,25.0229640890,271805.817,2768338.503,92.090,2.2218404643,0.1628987077,40.3253118598,97161.399375,0.204,0.20437,-0.00038
20200622_110245_00000273,6/22/2020,03:02:21.924,198.524125,97359.924,121.2160796397,25.0229772243,271807.053,2768339.960,92.071,2.1543257345,0.1314738889,40.4999250847,97161.399875,0.205,0.2045,0.0005
20200622_110245_00000274,6/22/2020,03:02:22.128,198.728375,97360.128,121.2160919148,25.0229902973,271808.290,2768341.410,92.052,2.0498801368,0.1478839498,40.6773366226,97161.399625,0.204,0.20425,-0.00025
20200622_110245_00000275,6/22/2020,03:02:22.330,198.929875,97360.33,121.2161041366,25.0230032311,271809.521,2768342.844,92.034,1.9788743110,0.2210734780,40.8635084175,97161.400125,0.202,0.2015,0.0005
20200622_110245_00000276,6/22/2020,03:02:22.534,199.13425,97360.534,121.2161165484,25.0230162871,271810.771,2768344.293,92.018,1.8680545060,0.2828474363,41.0613281848,97161.39975,0.204,0.20437,-0.00038
20200622_110245_00000277,6/22/2020,03:02:22.736,199.33575,97360.736,121.2161289160,25.0230292341,271812.017,2768345.729,92.004,1.7084478637,0.1950663860,41.2413036598,97161.40025,0.202,0.2015,0.0005
20200622_110245_00000278,6/22/2020,03:02:22.937,199.53725,97360.937,121.2161412832,25.0230420980,271813.263,2768347.155,91.990,1.5464527229,0.1650491960,41.4138125728,97161.39975,0.201,0.2015,-0.0005
20200622_110245_00000279,6/22/2020,03:02:23.139,199.73875,97361.139,121.2161537694,25.0230550431,271814.521,2768348.591,91.971,1.3035835097,0.0732340513,41.5851270869,97161.40025,0.202,0.2015,0.0005
20200622_110245_00000280,6/22/2020,03:02:23.340,199.94025,97361.34,121.2161662799,25.0230679628,271815.781,2768350.024,91.951,1.0069513695,-0.2345314302,41.7244250657,97161.39975,0.201,0.2015,-0.0005
20200622_110245_00000281,6/22/2020,03:02:23.541,200.141625,97361.541,121.2161788818,25.0230808025,271817.051,2768351.448,91.924,1.0728948947,-0.2636160804,41.9073564770,97161.399375,0.201,0.20138,-0.00037
20200622_110245_00000282,6/22/2020,03:02:23.743,200.343125,97361.743,121.2161916835,25.0230937001,271818.340,2768352.879,91.888,1.2242158954,-0.4613724199,41.9773995181,97161.399875,0.202,0.2015,0.0005
20200622_110245_00000283,6/22/2020,03:02:23.941,200.541625,97361.941,121.2162043495,25.0231063238,271819.616,2768354.279,91.856,1.6336680595,-0.6721893147,42.0406044074,97161.399375,0.198,0.1985,-0.0005
20200622_110245_00000284,6/22/2020,03:02:24.140,200.74,97362.14,121.2162170207,25.0231190832,271820.893,2768355.695,91.810,1.6715049306,-0.7009201415,42.0662595116,97161.4,0.199,0.19837,0.00062
20200622_110245_00000285,6/22/2020,03:02:24.336,200.935625,97362.336,121.2162295487,25.0231316902,271822.155,2768357.093,91.768,1.7276412002,-0.7743467611,42.0712290963,97161.400375,0.196,0.19562,0.00037
20200622_110245_00000286,6/22/2020,03:02:24.534,201.134125,97362.534,121.2162421662,25.0231443749,271823.426,2768358.500,91.720,1.8033063844,-0.3783641299,42.0773073570,97161.399875,0.198,0.1985,-0.0005
20200622_110245_00000287,6/22/2020,03:02:24.733,201.332625,97362.733,121.2162548425,25.0231571883,271824.703,2768359.921,91.682,1.6756963696,-0.1285019776,42.0387746540,97161.400375,0.199,0.1985,0.0005
20200622_110245_00000288,6/22/2020,03:02:24.928,201.528125,97362.928,121.2162673334,25.0231698595,271825.962,2768361.327,91.657,1.5524368983,-0.5106540618,42.0213497828,97161.399875,0.195,0.1955,-0.0005
20200622_110245_00000289,6/22/2020,03:02:25.127,201.72675,97363.127,121.2162801592,25.0231827406,271827.254,2768362.756,91.625,1.7506553543,-0.8332238736,42.0310436648,97161.40025,0.199,0.19863,0.00037
20200622_110245_00000290,6/22/2020,03:02:25.322,201.92225,97363.322,121.2162926973,25.0231952872,271828.517,2768364.147,91.574,1.9955890821,-0.5601865659,42.0086639333,97161.39975,0.195,0.1955,-0.0005
20200622_110245_00000291,6/22/2020,03:02:25.518,202.11775,97363.518,121.2163052531,25.0232079866,271829.782,2768365.556,91.532,1.8906525198,-0.3449760536,42.0622917153,97161.40025,0.196,0.1955,0.0005
20200622_110245_00000292,6/22/2020,03:02:25.713,202.313375,97363.713,121.2163178073,25.0232206732,271831.046,2768366.963,91.501,1.7952409752,-0.4765399841,42.2178471259,97161.399625,0.195,0.19563,-0.00062
20200622_110245_00000293,6/22/2020,03:02:25.909,202.508875,97363.909,121.2163304607,25.0232333553,271832.321,2768368.370,91.465,1.7609534871,-0.3479842367,42.3486790450,97161.400125,0.196,0.1955,0.0005
20200622_110245_00000294,6/22/2020,03:02:26.107,202.70725,97364.107,121.2163433125,25.0232461924,271833.616,2768369.794,91.429,1.7047270574,-0.5110382462,42.3528797879,97161.39975,0.198,0.19837,-0.00037
20200622_110245_00000295,6/22/2020,03:02:26.300,202.899875,97364.3,121.2163558315,25.0232586725,271834.877,2768371.178,91.394,1.7420117691,-0.3573938822,42.3849998019,97161.400125,0.193,0.19263,0.00037
